{
"type": "FeatureCollection",
"name": "xyz_1076_1326_11",
"crs": { "type": "name", "properties": { "name": "urn:ogc:def:crs:OGC:1.3:CRS84" } },
"features": [
{ "type": "Feature", "properties": { "id": "1245", "amenity": "toilets", "changing_t": null, "descriptio": null, "fee": null, "hand_rail": null, "municipali": "Flims", "name": "Postplatz", "network": null, "stairs": null, "toilets_po": "seated", "wc_guide_i": "1245", "website": null, "wheelchair": null, "Cluster_ID": 10, "xyz": "1076_1326_11" }, "geometry": { "type": "Point", "coordinates": [ 9.287734, 46.836445 ] } },
{ "type": "Feature", "properties": { "id": "1818", "amenity": "toilets", "changing_t": null, "descriptio": null, "fee": null, "hand_rail": null, "municipali": "Falera", "name": "Post", "network": null, "stairs": null, "toilets_po": "seated", "wc_guide_i": "1818", "website": null, "wheelchair": null, "Cluster_ID": 10, "xyz": "1076_1326_11" }, "geometry": { "type": "Point", "coordinates": [ 9.22946, 46.801762 ] } },
{ "type": "Feature", "properties": { "id": "2269", "amenity": "toilets", "changing_t": null, "descriptio": null, "fee": null, "hand_rail": null, "municipali": "Flims", "name": "Bergbahnen Flims", "network": null, "stairs": null, "toilets_po": "seated", "wc_guide_i": "2269", "website": null, "wheelchair": null, "Cluster_ID": 10, "xyz": "1076_1326_11" }, "geometry": { "type": "Point", "coordinates": [ 9.281532, 46.833984 ] } },
{ "type": "Feature", "properties": { "id": "3495", "amenity": "toilets", "changing_t": null, "descriptio": null, "fee": null, "hand_rail": null, "municipali": "Laax", "name": "Gondelstation", "network": null, "stairs": null, "toilets_po": "seated", "wc_guide_i": "3495", "website": null, "wheelchair": null, "Cluster_ID": 10, "xyz": "1076_1326_11" }, "geometry": { "type": "Point", "coordinates": [ 9.263383, 46.820171 ] } },
{ "type": "Feature", "properties": { "id": "16775", "amenity": "toilets", "changing_t": null, "descriptio": null, "fee": null, "hand_rail": null, "municipali": "Fellers", "name": "Gondelstation", "network": null, "stairs": null, "toilets_po": "seated", "wc_guide_i": "16775", "website": null, "wheelchair": null, "Cluster_ID": 10, "xyz": "1076_1326_11" }, "geometry": { "type": "Point", "coordinates": [ 9.228591, 46.802849 ] } }
]
}
