{
"type": "FeatureCollection",
"name": "xyz_1078_1329_11",
"crs": { "type": "name", "properties": { "name": "urn:ogc:def:crs:OGC:1.3:CRS84" } },
"features": [
{ "type": "Feature", "properties": { "id": "2227", "amenity": "toilets", "changing_t": null, "descriptio": null, "fee": null, "hand_rail": null, "municipali": "Haag", "name": "Coop Center", "network": null, "stairs": null, "toilets_po": "seated", "wc_guide_i": "2227", "website": null, "wheelchair": null, "Cluster_ID": 2, "xyz": "1078_1329_11" }, "geometry": { "type": "Point", "coordinates": [ 9.496994, 47.21146 ] } },
{ "type": "Feature", "properties": { "id": "2583", "amenity": "toilets", "changing_t": null, "descriptio": null, "fee": null, "hand_rail": null, "municipali": "Ruggell", "name": "Post", "network": null, "stairs": null, "toilets_po": "seated", "wc_guide_i": "2583", "website": null, "wheelchair": null, "Cluster_ID": 2, "xyz": "1078_1329_11" }, "geometry": { "type": "Point", "coordinates": [ 9.524663, 47.240726 ] } },
{ "type": "Feature", "properties": { "id": "2966", "amenity": "toilets", "changing_t": null, "descriptio": null, "fee": null, "hand_rail": null, "municipali": "Gamprin", "name": "Post Bendern", "network": null, "stairs": null, "toilets_po": "seated", "wc_guide_i": "2966", "website": null, "wheelchair": null, "Cluster_ID": 2, "xyz": "1078_1329_11" }, "geometry": { "type": "Point", "coordinates": [ 9.503072, 47.210629 ] } },
{ "type": "Feature", "properties": { "id": "2994", "amenity": "toilets", "changing_t": null, "descriptio": null, "fee": null, "hand_rail": null, "municipali": "Gamprin", "name": "Kirche Bendern", "network": null, "stairs": null, "toilets_po": "seated", "wc_guide_i": "2994", "website": null, "wheelchair": null, "Cluster_ID": 2, "xyz": "1078_1329_11" }, "geometry": { "type": "Point", "coordinates": [ 9.504819, 47.212139 ] } },
{ "type": "Feature", "properties": { "id": "3137", "amenity": "toilets", "changing_t": null, "descriptio": null, "fee": null, "hand_rail": null, "municipali": "Schaan", "name": "Pfarrkirche St Laurentius", "network": null, "stairs": null, "toilets_po": "seated", "wc_guide_i": "3137", "website": null, "wheelchair": null, "Cluster_ID": 2, "xyz": "1078_1329_11" }, "geometry": { "type": "Point", "coordinates": [ 9.51165, 47.166492 ] } },
{ "type": "Feature", "properties": { "id": "3348", "amenity": "toilets", "changing_t": null, "descriptio": null, "fee": null, "hand_rail": null, "municipali": "Ruggell", "name": "Schule Spielplatz", "network": null, "stairs": null, "toilets_po": "seated", "wc_guide_i": "3348", "website": null, "wheelchair": null, "Cluster_ID": 2, "xyz": "1078_1329_11" }, "geometry": { "type": "Point", "coordinates": [ 9.525238, 47.238792 ] } },
{ "type": "Feature", "properties": { "id": "3691", "amenity": "toilets", "changing_t": null, "descriptio": null, "fee": null, "hand_rail": null, "municipali": "Planken", "name": "Schule Planken", "network": null, "stairs": null, "toilets_po": "seated", "wc_guide_i": "3691", "website": null, "wheelchair": null, "Cluster_ID": 2, "xyz": "1078_1329_11" }, "geometry": { "type": "Point", "coordinates": [ 9.538622, 47.205662 ] } },
{ "type": "Feature", "properties": { "id": "3851", "amenity": "toilets", "changing_t": null, "descriptio": null, "fee": null, "hand_rail": null, "municipali": "Mauren", "name": "Post Mauren", "network": null, "stairs": null, "toilets_po": "seated", "wc_guide_i": "3851", "website": null, "wheelchair": null, "Cluster_ID": 2, "xyz": "1078_1329_11" }, "geometry": { "type": "Point", "coordinates": [ 9.542618, 47.21859 ] } },
{ "type": "Feature", "properties": { "id": "4131", "amenity": "toilets", "changing_t": null, "descriptio": null, "fee": null, "hand_rail": null, "municipali": "Sennwald", "name": "Bahnhof", "network": null, "stairs": null, "toilets_po": "seated", "wc_guide_i": "4131", "website": null, "wheelchair": null, "Cluster_ID": 2, "xyz": "1078_1329_11" }, "geometry": { "type": "Point", "coordinates": [ 9.502, 47.241215 ] } }
]
}
