{
"type": "FeatureCollection",
"name": "xyz_1070_1326_11",
"crs": { "type": "name", "properties": { "name": "urn:ogc:def:crs:OGC:1.3:CRS84" } },
"features": [
{ "type": "Feature", "properties": { "id": "871", "amenity": "toilets", "changing_t": null, "descriptio": null, "fee": null, "hand_rail": null, "municipali": "Sarnen", "name": "Gemeindehaus", "network": null, "stairs": null, "toilets_po": "seated", "wc_guide_i": "871", "website": null, "wheelchair": null, "Cluster_ID": 35, "xyz": "1070_1326_11" }, "geometry": { "type": "Point", "coordinates": [ 8.245153, 46.894043 ] } },
{ "type": "Feature", "properties": { "id": "877", "amenity": "toilets", "changing_t": null, "descriptio": null, "fee": null, "hand_rail": null, "municipali": "Wilen (Sarnen)", "name": null, "network": null, "stairs": null, "toilets_po": "seated", "wc_guide_i": "877", "website": null, "wheelchair": null, "Cluster_ID": 35, "xyz": "1070_1326_11" }, "geometry": { "type": "Point", "coordinates": [ 8.199777, 46.867554 ] } },
{ "type": "Feature", "properties": { "id": "878", "amenity": "toilets", "changing_t": null, "descriptio": null, "fee": null, "hand_rail": null, "municipali": "Stalden (Sarnen)", "name": "beim Friedhof", "network": null, "stairs": null, "toilets_po": "seated", "wc_guide_i": "878", "website": null, "wheelchair": null, "Cluster_ID": 35, "xyz": "1070_1326_11" }, "geometry": { "type": "Point", "coordinates": [ 8.21176, 46.886356 ] } },
{ "type": "Feature", "properties": { "id": "1140", "amenity": "toilets", "changing_t": null, "descriptio": "50 Rp., Pissoir gratis", "fee": null, "hand_rail": null, "municipali": "Sachseln", "name": "Bahnhof", "network": null, "stairs": null, "toilets_po": "seated", "wc_guide_i": "1140", "website": null, "wheelchair": null, "Cluster_ID": 35, "xyz": "1070_1326_11" }, "geometry": { "type": "Point", "coordinates": [ 8.237772, 46.870605 ] } },
{ "type": "Feature", "properties": { "id": "2253", "amenity": "toilets", "changing_t": null, "descriptio": null, "fee": null, "hand_rail": null, "municipali": "Giswil", "name": "Chlus Dï¿½rsmatt", "network": null, "stairs": null, "toilets_po": "seated", "wc_guide_i": "2253", "website": null, "wheelchair": null, "Cluster_ID": 35, "xyz": "1070_1326_11" }, "geometry": { "type": "Point", "coordinates": [ 8.087461, 46.861557 ] } },
{ "type": "Feature", "properties": { "id": "2811", "amenity": "toilets", "changing_t": null, "descriptio": null, "fee": null, "hand_rail": null, "municipali": "Langis", "name": null, "network": null, "stairs": null, "toilets_po": "seated", "wc_guide_i": "2811", "website": null, "wheelchair": null, "Cluster_ID": 35, "xyz": "1070_1326_11" }, "geometry": { "type": "Point", "coordinates": [ 8.134217, 46.907768 ] } },
{ "type": "Feature", "properties": { "id": "4580", "amenity": "toilets", "changing_t": null, "descriptio": null, "fee": null, "hand_rail": null, "municipali": "Sarnen", "name": "Esso Tankstelle", "network": null, "stairs": null, "toilets_po": "seated", "wc_guide_i": "4580", "website": null, "wheelchair": null, "Cluster_ID": 35, "xyz": "1070_1326_11" }, "geometry": { "type": "Point", "coordinates": [ 8.250688, 46.898651 ] } },
{ "type": "Feature", "properties": { "id": "18227", "amenity": "toilets", "changing_t": null, "descriptio": null, "fee": null, "hand_rail": null, "municipali": "Sarnen", "name": "Feuerwehr", "network": null, "stairs": null, "toilets_po": "seated", "wc_guide_i": "18227", "website": null, "wheelchair": null, "Cluster_ID": 35, "xyz": "1070_1326_11" }, "geometry": { "type": "Point", "coordinates": [ 8.22027, 46.877224 ] } },
{ "type": "Feature", "properties": { "id": "18233", "amenity": "toilets", "changing_t": null, "descriptio": null, "fee": null, "hand_rail": null, "municipali": "Sachseln", "name": null, "network": null, "stairs": null, "toilets_po": "seated", "wc_guide_i": "18233", "website": null, "wheelchair": null, "Cluster_ID": 35, "xyz": "1070_1326_11" }, "geometry": { "type": "Point", "coordinates": [ 8.235336, 46.869301 ] } },
{ "type": "Feature", "properties": { "id": "19107", "amenity": "toilets", "changing_t": null, "descriptio": null, "fee": null, "hand_rail": null, "municipali": "Sarnen", "name": "Friedhof", "network": null, "stairs": null, "toilets_po": "seated", "wc_guide_i": "19107", "website": null, "wheelchair": null, "Cluster_ID": 35, "xyz": "1070_1326_11" }, "geometry": { "type": "Point", "coordinates": [ 8.237624, 46.893799 ] } },
{ "type": "Feature", "properties": { "id": "20060", "amenity": "toilets", "changing_t": null, "descriptio": "Kompost-Toilette", "fee": null, "hand_rail": null, "municipali": "Giswil", "name": "Spielplatz", "network": null, "stairs": null, "toilets_po": "seated", "wc_guide_i": "20060", "website": null, "wheelchair": null, "Cluster_ID": 35, "xyz": "1070_1326_11" }, "geometry": { "type": "Point", "coordinates": [ 8.179934, 46.833519 ] } },
{ "type": "Feature", "properties": { "id": "20061", "amenity": "toilets", "changing_t": null, "descriptio": null, "fee": null, "hand_rail": null, "municipali": "Giswil", "name": null, "network": null, "stairs": null, "toilets_po": "seated", "wc_guide_i": "20061", "website": null, "wheelchair": null, "Cluster_ID": 35, "xyz": "1070_1326_11" }, "geometry": { "type": "Point", "coordinates": [ 8.162674, 46.837666 ] } },
{ "type": "Feature", "properties": { "id": "20062", "amenity": "toilets", "changing_t": null, "descriptio": null, "fee": null, "hand_rail": null, "municipali": "Sachseln", "name": "Kleines Melchtal", "network": null, "stairs": null, "toilets_po": "seated", "wc_guide_i": "20062", "website": null, "wheelchair": null, "Cluster_ID": 35, "xyz": "1070_1326_11" }, "geometry": { "type": "Point", "coordinates": [ 8.2111, 46.822613 ] } },
{ "type": "Feature", "properties": { "id": "20403", "amenity": "toilets", "changing_t": null, "descriptio": null, "fee": null, "hand_rail": null, "municipali": "Giswil", "name": null, "network": null, "stairs": null, "toilets_po": "seated", "wc_guide_i": "20403", "website": null, "wheelchair": null, "Cluster_ID": 35, "xyz": "1070_1326_11" }, "geometry": { "type": "Point", "coordinates": [ 8.1787, 46.831673 ] } },
{ "type": "Feature", "properties": { "id": "21191", "amenity": "toilets", "changing_t": null, "descriptio": "UG", "fee": null, "hand_rail": null, "municipali": "Sarnen", "name": "Lindenhof", "network": null, "stairs": null, "toilets_po": "seated", "wc_guide_i": "21191", "website": null, "wheelchair": null, "Cluster_ID": 35, "xyz": "1070_1326_11" }, "geometry": { "type": "Point", "coordinates": [ 8.24693, 46.89722 ] } }
]
}
