{
"type": "FeatureCollection",
"name": "xyz_1075_1319_11",
"crs": { "type": "name", "properties": { "name": "urn:ogc:def:crs:OGC:1.3:CRS84" } },
"features": [
{ "type": "Feature", "properties": { "id": "16694", "amenity": "toilets", "changing_t": null, "descriptio": null, "fee": null, "hand_rail": null, "municipali": "Capriasca", "name": "Centro", "network": null, "stairs": null, "toilets_po": "seated", "wc_guide_i": "16694", "website": null, "wheelchair": null, "Cluster_ID": 25, "xyz": "1075_1319_11" }, "geometry": { "type": "Point", "coordinates": [ 8.966681, 46.066784 ] } },
{ "type": "Feature", "properties": { "id": "16734", "amenity": "toilets", "changing_t": null, "descriptio": null, "fee": null, "hand_rail": null, "municipali": "Lugano", "name": "Parco Lanchetta", "network": null, "stairs": null, "toilets_po": "seated", "wc_guide_i": "16734", "website": null, "wheelchair": null, "Cluster_ID": 25, "xyz": "1075_1319_11" }, "geometry": { "type": "Point", "coordinates": [ 8.968663, 46.006344 ] } },
{ "type": "Feature", "properties": { "id": "16736", "amenity": "toilets", "changing_t": null, "descriptio": null, "fee": null, "hand_rail": null, "municipali": "Lugano", "name": "Cimitero di Brï¿½", "network": null, "stairs": null, "toilets_po": "seated", "wc_guide_i": "16736", "website": null, "wheelchair": null, "Cluster_ID": 25, "xyz": "1075_1319_11" }, "geometry": { "type": "Point", "coordinates": [ 8.995571, 46.010792 ] } },
{ "type": "Feature", "properties": { "id": "16737", "amenity": "toilets", "changing_t": null, "descriptio": null, "fee": null, "hand_rail": null, "municipali": "Lugano", "name": "Zona di Svago", "network": null, "stairs": null, "toilets_po": "seated", "wc_guide_i": "16737", "website": null, "wheelchair": null, "Cluster_ID": 25, "xyz": "1075_1319_11" }, "geometry": { "type": "Point", "coordinates": [ 8.99993, 46.014507 ] } },
{ "type": "Feature", "properties": { "id": "16758", "amenity": "toilets", "changing_t": null, "descriptio": null, "fee": null, "hand_rail": null, "municipali": "Lugano", "name": "Sentiero di Gandria", "network": null, "stairs": null, "toilets_po": "seated", "wc_guide_i": "16758", "website": null, "wheelchair": null, "Cluster_ID": 25, "xyz": "1075_1319_11" }, "geometry": { "type": "Point", "coordinates": [ 8.989961, 46.004147 ] } },
{ "type": "Feature", "properties": { "id": "19798", "amenity": "toilets", "changing_t": null, "descriptio": null, "fee": null, "hand_rail": null, "municipali": "6900 Lugano Schweiz", "name": "Kiosk WC", "network": null, "stairs": null, "toilets_po": "seated", "wc_guide_i": "19798", "website": null, "wheelchair": null, "Cluster_ID": 25, "xyz": "1075_1319_11" }, "geometry": { "type": "Point", "coordinates": [ 8.965529, 46.006351 ] } }
]
}
