{
"type": "FeatureCollection",
"name": "xyz_1069_1332_11",
"crs": { "type": "name", "properties": { "name": "urn:ogc:def:crs:OGC:1.3:CRS84" } },
"features": [
{ "type": "Feature", "properties": { "id": "1994", "amenity": "toilets", "changing_t": null, "descriptio": null, "fee": null, "hand_rail": null, "municipali": "Laufenburg (Baden)", "name": "Im Edeka Markt", "network": null, "stairs": null, "toilets_po": "seated", "wc_guide_i": "1994", "website": null, "wheelchair": null, "Cluster_ID": 28, "xyz": "1069_1332_11" }, "geometry": { "type": "Point", "coordinates": [ 8.072183, 47.565914 ] } },
{ "type": "Feature", "properties": { "id": "2989", "amenity": "toilets", "changing_t": null, "descriptio": null, "fee": null, "hand_rail": null, "municipali": "Oeschgen", "name": "Oeschgen", "network": null, "stairs": null, "toilets_po": "seated", "wc_guide_i": "2989", "website": null, "wheelchair": null, "Cluster_ID": 41, "xyz": "1069_1332_11" }, "geometry": { "type": "Point", "coordinates": [ 8.017133, 47.519238 ] } },
{ "type": "Feature", "properties": { "id": "2990", "amenity": "toilets", "changing_t": null, "descriptio": null, "fee": null, "hand_rail": null, "municipali": "Oeschgen", "name": "Oeschgen", "network": null, "stairs": null, "toilets_po": "seated", "wc_guide_i": "2990", "website": null, "wheelchair": null, "Cluster_ID": 41, "xyz": "1069_1332_11" }, "geometry": { "type": "Point", "coordinates": [ 8.017144, 47.51923 ] } },
{ "type": "Feature", "properties": { "id": "4261", "amenity": "toilets", "changing_t": null, "descriptio": null, "fee": null, "hand_rail": null, "municipali": "Laufenburg", "name": "Friedhof", "network": null, "stairs": null, "toilets_po": "seated", "wc_guide_i": "4261", "website": null, "wheelchair": null, "Cluster_ID": 41, "xyz": "1069_1332_11" }, "geometry": { "type": "Point", "coordinates": [ 8.061304, 47.555748 ] } },
{ "type": "Feature", "properties": { "id": "16695", "amenity": "toilets", "changing_t": null, "descriptio": null, "fee": null, "hand_rail": null, "municipali": "Eiken", "name": "Friedhof Eiken", "network": null, "stairs": null, "toilets_po": "seated", "wc_guide_i": "16695", "website": null, "wheelchair": null, "Cluster_ID": 41, "xyz": "1069_1332_11" }, "geometry": { "type": "Point", "coordinates": [ 7.987161, 47.532761 ] } },
{ "type": "Feature", "properties": { "id": "19365", "amenity": "toilets", "changing_t": null, "descriptio": "Fragen im shop", "fee": null, "hand_rail": null, "municipali": "Stein AG", "name": "Avec Tankstelle", "network": null, "stairs": null, "toilets_po": "seated", "wc_guide_i": "19365", "website": null, "wheelchair": null, "Cluster_ID": 41, "xyz": "1069_1332_11" }, "geometry": { "type": "Point", "coordinates": [ 7.95702, 47.545258 ] } },
{ "type": "Feature", "properties": { "id": "20082", "amenity": "toilets", "changing_t": null, "descriptio": null, "fee": null, "hand_rail": null, "municipali": "Mumpf", "name": "Friedhof", "network": null, "stairs": null, "toilets_po": "seated", "wc_guide_i": "20082", "website": null, "wheelchair": null, "Cluster_ID": 41, "xyz": "1069_1332_11" }, "geometry": { "type": "Point", "coordinates": [ 7.912965, 47.54731 ] } },
{ "type": "Feature", "properties": { "id": "20806", "amenity": "toilets", "changing_t": null, "descriptio": null, "fee": null, "hand_rail": null, "municipali": "Sisseln", "name": "beim Spielplatz", "network": null, "stairs": null, "toilets_po": "seated", "wc_guide_i": "20806", "website": null, "wheelchair": null, "Cluster_ID": 41, "xyz": "1069_1332_11" }, "geometry": { "type": "Point", "coordinates": [ 7.987343, 47.550686 ] } }
]
}
