{
"type": "FeatureCollection",
"name": "xyz_1074_1319_11",
"crs": { "type": "name", "properties": { "name": "urn:ogc:def:crs:OGC:1.3:CRS84" } },
"features": [
{ "type": "Feature", "properties": { "id": "2235", "amenity": "toilets", "changing_t": null, "descriptio": null, "fee": null, "hand_rail": null, "municipali": "Lugano", "name": "Manor", "network": null, "stairs": null, "toilets_po": "seated", "wc_guide_i": "2235", "website": null, "wheelchair": null, "Cluster_ID": 25, "xyz": "1074_1319_11" }, "geometry": { "type": "Point", "coordinates": [ 8.949695, 46.005814 ] } },
{ "type": "Feature", "properties": { "id": "2631", "amenity": "toilets", "changing_t": null, "descriptio": null, "fee": null, "hand_rail": null, "municipali": "Comano", "name": "Comano", "network": null, "stairs": null, "toilets_po": "seated", "wc_guide_i": "2631", "website": null, "wheelchair": null, "Cluster_ID": 25, "xyz": "1074_1319_11" }, "geometry": { "type": "Point", "coordinates": [ 8.954437, 46.035965 ] } },
{ "type": "Feature", "properties": { "id": "3201", "amenity": "toilets", "changing_t": null, "descriptio": "Scendere la scala", "fee": null, "hand_rail": null, "municipali": "Massagno", "name": "Fuori dal muro", "network": null, "stairs": null, "toilets_po": "seated", "wc_guide_i": "3201", "website": null, "wheelchair": null, "Cluster_ID": 25, "xyz": "1074_1319_11" }, "geometry": { "type": "Point", "coordinates": [ 8.943686, 46.010517 ] } },
{ "type": "Feature", "properties": { "id": "3775", "amenity": "toilets", "changing_t": null, "descriptio": null, "fee": null, "hand_rail": null, "municipali": "Cureglia", "name": null, "network": null, "stairs": null, "toilets_po": "urinal", "wc_guide_i": "3775", "website": null, "wheelchair": null, "Cluster_ID": 25, "xyz": "1074_1319_11" }, "geometry": { "type": "Point", "coordinates": [ 8.940382, 46.032932 ] } },
{ "type": "Feature", "properties": { "id": "4262", "amenity": "toilets", "changing_t": null, "descriptio": null, "fee": null, "hand_rail": null, "municipali": "Cureglia", "name": null, "network": null, "stairs": null, "toilets_po": "seated", "wc_guide_i": "4262", "website": null, "wheelchair": null, "Cluster_ID": 25, "xyz": "1074_1319_11" }, "geometry": { "type": "Point", "coordinates": [ 8.945618, 46.036629 ] } },
{ "type": "Feature", "properties": { "id": "4286", "amenity": "toilets", "changing_t": null, "descriptio": null, "fee": null, "hand_rail": null, "municipali": "Melide", "name": "Lugano", "network": null, "stairs": null, "toilets_po": "seated", "wc_guide_i": "4286", "website": null, "wheelchair": null, "Cluster_ID": 25, "xyz": "1074_1319_11" }, "geometry": { "type": "Point", "coordinates": [ 8.947849, 45.955952 ] } },
{ "type": "Feature", "properties": { "id": "4483", "amenity": "toilets", "changing_t": null, "descriptio": "Lugano", "fee": null, "hand_rail": null, "municipali": "Torricella-Taverne", "name": "Lugano", "network": null, "stairs": null, "toilets_po": "seated", "wc_guide_i": "4483", "website": null, "wheelchair": null, "Cluster_ID": 25, "xyz": "1074_1319_11" }, "geometry": { "type": "Point", "coordinates": [ 8.923932, 46.062717 ] } },
{ "type": "Feature", "properties": { "id": "4672", "amenity": "toilets", "changing_t": null, "descriptio": null, "fee": null, "hand_rail": null, "municipali": "Astano", "name": "Astano Paese", "network": null, "stairs": null, "toilets_po": "seated", "wc_guide_i": "4672", "website": null, "wheelchair": null, "Cluster_ID": 25, "xyz": "1074_1319_11" }, "geometry": { "type": "Point", "coordinates": [ 8.815686, 46.012329 ] } },
{ "type": "Feature", "properties": { "id": "16723", "amenity": "toilets", "changing_t": null, "descriptio": null, "fee": null, "hand_rail": null, "municipali": "Lugano", "name": "Autosilo Motta", "network": null, "stairs": null, "toilets_po": "seated", "wc_guide_i": "16723", "website": null, "wheelchair": null, "Cluster_ID": 25, "xyz": "1074_1319_11" }, "geometry": { "type": "Point", "coordinates": [ 8.949492, 46.003696 ] } },
{ "type": "Feature", "properties": { "id": "16728", "amenity": "toilets", "changing_t": null, "descriptio": null, "fee": null, "hand_rail": null, "municipali": "Lugano", "name": "Autosilo Loreto", "network": null, "stairs": null, "toilets_po": "seated", "wc_guide_i": "16728", "website": null, "wheelchair": null, "Cluster_ID": 25, "xyz": "1074_1319_11" }, "geometry": { "type": "Point", "coordinates": [ 8.945065, 45.998573 ] } },
{ "type": "Feature", "properties": { "id": "16730", "amenity": "toilets", "changing_t": null, "descriptio": null, "fee": null, "hand_rail": null, "municipali": "Porza", "name": "Percorso Vita", "network": null, "stairs": null, "toilets_po": "seated", "wc_guide_i": "16730", "website": null, "wheelchair": null, "Cluster_ID": 25, "xyz": "1074_1319_11" }, "geometry": { "type": "Point", "coordinates": [ 8.957291, 46.023781 ] } },
{ "type": "Feature", "properties": { "id": "16732", "amenity": "toilets", "changing_t": null, "descriptio": null, "fee": null, "hand_rail": null, "municipali": "Lugano", "name": "Campo Rionale", "network": null, "stairs": null, "toilets_po": "seated", "wc_guide_i": "16732", "website": null, "wheelchair": null, "Cluster_ID": 25, "xyz": "1074_1319_11" }, "geometry": { "type": "Point", "coordinates": [ 8.95811, 46.007984 ] } },
{ "type": "Feature", "properties": { "id": "16739", "amenity": "toilets", "changing_t": null, "descriptio": null, "fee": null, "hand_rail": null, "municipali": "Barbengo", "name": null, "network": null, "stairs": null, "toilets_po": "seated", "wc_guide_i": "16739", "website": null, "wheelchair": null, "Cluster_ID": 25, "xyz": "1074_1319_11" }, "geometry": { "type": "Point", "coordinates": [ 8.911531, 45.95789 ] } },
{ "type": "Feature", "properties": { "id": "16788", "amenity": "toilets", "changing_t": null, "descriptio": null, "fee": null, "hand_rail": null, "municipali": "Lugano", "name": "Campo Rionale", "network": null, "stairs": null, "toilets_po": "seated", "wc_guide_i": "16788", "website": null, "wheelchair": null, "Cluster_ID": 25, "xyz": "1074_1319_11" }, "geometry": { "type": "Point", "coordinates": [ 8.958921, 46.014839 ] } },
{ "type": "Feature", "properties": { "id": "19396", "amenity": "toilets", "changing_t": null, "descriptio": null, "fee": null, "hand_rail": null, "municipali": "Porza", "name": "Piazza Soldati", "network": null, "stairs": null, "toilets_po": "seated", "wc_guide_i": "19396", "website": null, "wheelchair": null, "Cluster_ID": 25, "xyz": "1074_1319_11" }, "geometry": { "type": "Point", "coordinates": [ 8.953065, 46.027004 ] } },
{ "type": "Feature", "properties": { "id": "19468", "amenity": "toilets", "changing_t": null, "descriptio": null, "fee": null, "hand_rail": null, "municipali": "Ponte Tresa TI", "name": "Statione Ponte Tresa", "network": null, "stairs": null, "toilets_po": "seated", "wc_guide_i": "19468", "website": null, "wheelchair": null, "Cluster_ID": 25, "xyz": "1074_1319_11" }, "geometry": { "type": "Point", "coordinates": [ 8.860488, 45.970581 ] } },
{ "type": "Feature", "properties": { "id": "19791", "amenity": "toilets", "changing_t": null, "descriptio": null, "fee": null, "hand_rail": null, "municipali": "Lugano", "name": null, "network": null, "stairs": null, "toilets_po": "seated", "wc_guide_i": "19791", "website": null, "wheelchair": null, "Cluster_ID": 25, "xyz": "1074_1319_11" }, "geometry": { "type": "Point", "coordinates": [ 8.946415, 46.00906 ] } },
{ "type": "Feature", "properties": { "id": "20520", "amenity": "toilets", "changing_t": null, "descriptio": null, "fee": null, "hand_rail": null, "municipali": "Agno", "name": "Parco Communale", "network": null, "stairs": null, "toilets_po": "seated", "wc_guide_i": "20520", "website": null, "wheelchair": null, "Cluster_ID": 25, "xyz": "1074_1319_11" }, "geometry": { "type": "Point", "coordinates": [ 8.900403, 45.993546 ] } }
]
}
