{
"type": "FeatureCollection",
"name": "xyz_1077_1329_11",
"crs": { "type": "name", "properties": { "name": "urn:ogc:def:crs:OGC:1.3:CRS84" } },
"features": [
{ "type": "Feature", "properties": { "id": "572", "amenity": "toilets", "changing_t": null, "descriptio": null, "fee": null, "hand_rail": null, "municipali": "Buchs SG", "name": "Bahnhof SBB", "network": null, "stairs": null, "toilets_po": "seated", "wc_guide_i": "572", "website": null, "wheelchair": null, "Cluster_ID": 2, "xyz": "1077_1329_11" }, "geometry": { "type": "Point", "coordinates": [ 9.478218, 47.167973 ] } },
{ "type": "Feature", "properties": { "id": "1192", "amenity": "toilets", "changing_t": null, "descriptio": null, "fee": null, "hand_rail": null, "municipali": "Buchs", "name": "Marktplatz", "network": null, "stairs": null, "toilets_po": "seated", "wc_guide_i": "1192", "website": null, "wheelchair": null, "Cluster_ID": 2, "xyz": "1077_1329_11" }, "geometry": { "type": "Point", "coordinates": [ 9.474163, 47.169556 ] } },
{ "type": "Feature", "properties": { "id": "1294", "amenity": "toilets", "changing_t": null, "descriptio": null, "fee": null, "hand_rail": null, "municipali": "Buchs", "name": "Migros Buchs", "network": null, "stairs": null, "toilets_po": "seated", "wc_guide_i": "1294", "website": null, "wheelchair": null, "Cluster_ID": 2, "xyz": "1077_1329_11" }, "geometry": { "type": "Point", "coordinates": [ 9.473648, 47.163895 ] } },
{ "type": "Feature", "properties": { "id": "2228", "amenity": "toilets", "changing_t": null, "descriptio": "Im 1. Stock , lift", "fee": null, "hand_rail": null, "municipali": "Haag", "name": "Dennerkomplex", "network": null, "stairs": null, "toilets_po": "seated", "wc_guide_i": "2228", "website": null, "wheelchair": null, "Cluster_ID": 2, "xyz": "1077_1329_11" }, "geometry": { "type": "Point", "coordinates": [ 9.491844, 47.210209 ] } },
{ "type": "Feature", "properties": { "id": "3831", "amenity": "toilets", "changing_t": null, "descriptio": null, "fee": null, "hand_rail": null, "municipali": "Haag", "name": "Haag Center", "network": null, "stairs": null, "toilets_po": "seated", "wc_guide_i": "3831", "website": "https:\/\/www.einkaufszentrum-haag.ch\/", "wheelchair": null, "Cluster_ID": 2, "xyz": "1077_1329_11" }, "geometry": { "type": "Point", "coordinates": [ 9.489613, 47.209072 ] } },
{ "type": "Feature", "properties": { "id": "3983", "amenity": "toilets", "changing_t": null, "descriptio": null, "fee": null, "hand_rail": null, "municipali": "Buchs", "name": "Rathaus", "network": null, "stairs": null, "toilets_po": "seated", "wc_guide_i": "3983", "website": null, "wheelchair": null, "Cluster_ID": 2, "xyz": "1077_1329_11" }, "geometry": { "type": "Point", "coordinates": [ 9.470864, 47.165695 ] } },
{ "type": "Feature", "properties": { "id": "3984", "amenity": "toilets", "changing_t": null, "descriptio": null, "fee": null, "hand_rail": null, "municipali": "Buchs", "name": "Kath. Pfarreiheim", "network": null, "stairs": null, "toilets_po": "seated", "wc_guide_i": "3984", "website": null, "wheelchair": null, "Cluster_ID": 2, "xyz": "1077_1329_11" }, "geometry": { "type": "Point", "coordinates": [ 9.470944, 47.16394 ] } },
{ "type": "Feature", "properties": { "id": "4587", "amenity": "toilets", "changing_t": null, "descriptio": null, "fee": null, "hand_rail": null, "municipali": "Wildhaus", "name": "Wildhaus Bergbahnen", "network": null, "stairs": null, "toilets_po": "seated", "wc_guide_i": "4587", "website": null, "wheelchair": null, "Cluster_ID": 2, "xyz": "1077_1329_11" }, "geometry": { "type": "Point", "coordinates": [ 9.341877, 47.199081 ] } },
{ "type": "Feature", "properties": { "id": "19120", "amenity": "toilets", "changing_t": null, "descriptio": "ï¿½ffentl. WC zwischen Post", "fee": null, "hand_rail": null, "municipali": "Gams", "name": null, "network": null, "stairs": null, "toilets_po": "seated", "wc_guide_i": "19120", "website": null, "wheelchair": null, "Cluster_ID": 2, "xyz": "1077_1329_11" }, "geometry": { "type": "Point", "coordinates": [ 9.442891, 47.203472 ] } },
{ "type": "Feature", "properties": { "id": "21006", "amenity": "toilets", "changing_t": null, "descriptio": null, "fee": null, "hand_rail": null, "municipali": "Gams", "name": "Offendliches Wc", "network": null, "stairs": null, "toilets_po": "seated", "wc_guide_i": "21006", "website": null, "wheelchair": null, "Cluster_ID": 2, "xyz": "1077_1329_11" }, "geometry": { "type": "Point", "coordinates": [ 9.441916, 47.203941 ] } }
]
}
