{
"type": "FeatureCollection",
"name": "xyz_1076_1331_11",
"crs": { "type": "name", "properties": { "name": "urn:ogc:def:crs:OGC:1.3:CRS84" } },
"features": [
{ "type": "Feature", "properties": { "id": "1732", "amenity": "toilets", "changing_t": null, "descriptio": "versenkbare Pissoirs nur bei Fussballspielen", "fee": null, "hand_rail": null, "municipali": "St. Gallen", "name": "Bahnsteig Nord Bahnhof Winkeln", "network": null, "stairs": null, "toilets_po": "urinal", "wc_guide_i": "1732", "website": null, "wheelchair": null, "Cluster_ID": 29, "xyz": "1076_1331_11" }, "geometry": { "type": "Point", "coordinates": [ 9.301901, 47.403984 ] } },
{ "type": "Feature", "properties": { "id": "2020", "amenity": "toilets", "changing_t": null, "descriptio": null, "fee": null, "hand_rail": null, "municipali": "Flawil", "name": "Spielplatz", "network": null, "stairs": null, "toilets_po": "seated", "wc_guide_i": "2020", "website": null, "wheelchair": null, "Cluster_ID": 3, "xyz": "1076_1331_11" }, "geometry": { "type": "Point", "coordinates": [ 9.184452, 47.413086 ] } },
{ "type": "Feature", "properties": { "id": "2305", "amenity": "toilets", "changing_t": null, "descriptio": null, "fee": null, "hand_rail": null, "municipali": "St. Gallen", "name": "Shopping Arena", "network": null, "stairs": null, "toilets_po": "seated", "wc_guide_i": "2305", "website": "https:\/\/shopping-arena.ch\/", "wheelchair": null, "Cluster_ID": 29, "xyz": "1076_1331_11" }, "geometry": { "type": "Point", "coordinates": [ 9.306028, 47.408394 ] } },
{ "type": "Feature", "properties": { "id": "3989", "amenity": "toilets", "changing_t": null, "descriptio": null, "fee": null, "hand_rail": null, "municipali": "Flawil", "name": "Migrolino", "network": null, "stairs": null, "toilets_po": "seated", "wc_guide_i": "3989", "website": null, "wheelchair": null, "Cluster_ID": 3, "xyz": "1076_1331_11" }, "geometry": { "type": "Point", "coordinates": [ 9.18935, 47.415401 ] } },
{ "type": "Feature", "properties": { "id": "4285", "amenity": "toilets", "changing_t": null, "descriptio": "50 Rappen", "fee": null, "hand_rail": null, "municipali": "Hauptwil", "name": "Feuerwehrdepot", "network": null, "stairs": null, "toilets_po": "seated", "wc_guide_i": "4285", "website": null, "wheelchair": null, "Cluster_ID": 29, "xyz": "1076_1331_11" }, "geometry": { "type": "Point", "coordinates": [ 9.254415, 47.47966 ] } },
{ "type": "Feature", "properties": { "id": "4487", "amenity": "toilets", "changing_t": null, "descriptio": "Gegenï¿½ber Kirche", "fee": null, "hand_rail": null, "municipali": "Bischofszell", "name": null, "network": null, "stairs": null, "toilets_po": "seated", "wc_guide_i": "4487", "website": null, "wheelchair": null, "Cluster_ID": 29, "xyz": "1076_1331_11" }, "geometry": { "type": "Point", "coordinates": [ 9.237935, 47.493668 ] } },
{ "type": "Feature", "properties": { "id": "4488", "amenity": "toilets", "changing_t": null, "descriptio": "Immer Offen", "fee": null, "hand_rail": null, "municipali": "Bischofszell", "name": "Bahnhof", "network": null, "stairs": null, "toilets_po": "seated", "wc_guide_i": "4488", "website": null, "wheelchair": null, "Cluster_ID": 29, "xyz": "1076_1331_11" }, "geometry": { "type": "Point", "coordinates": [ 9.24113, 47.491955 ] } },
{ "type": "Feature", "properties": { "id": "16598", "amenity": "toilets", "changing_t": null, "descriptio": null, "fee": null, "hand_rail": null, "municipali": "Ronwil", "name": null, "network": null, "stairs": null, "toilets_po": "seated", "wc_guide_i": "16598", "website": null, "wheelchair": null, "Cluster_ID": 29, "xyz": "1076_1331_11" }, "geometry": { "type": "Point", "coordinates": [ 9.266174, 47.461941 ] } },
{ "type": "Feature", "properties": { "id": "20531", "amenity": "toilets", "changing_t": null, "descriptio": null, "fee": null, "hand_rail": null, "municipali": "Niederuzwil", "name": null, "network": null, "stairs": null, "toilets_po": "seated", "wc_guide_i": "20531", "website": null, "wheelchair": null, "Cluster_ID": 3, "xyz": "1076_1331_11" }, "geometry": { "type": "Point", "coordinates": [ 9.142931, 47.445461 ] } },
{ "type": "Feature", "properties": { "id": "20589", "amenity": "toilets", "changing_t": null, "descriptio": null, "fee": null, "hand_rail": null, "municipali": "Gossau", "name": null, "network": null, "stairs": null, "toilets_po": "seated", "wc_guide_i": "20589", "website": null, "wheelchair": null, "Cluster_ID": 29, "xyz": "1076_1331_11" }, "geometry": { "type": "Point", "coordinates": [ 9.256042, 47.413967 ] } }
]
}
