{
"type": "FeatureCollection",
"name": "xyz_1065_1326_11",
"crs": { "type": "name", "properties": { "name": "urn:ogc:def:crs:OGC:1.3:CRS84" } },
"features": [
{ "type": "Feature", "properties": { "id": "1518", "amenity": "toilets", "changing_t": null, "descriptio": null, "fee": null, "hand_rail": null, "municipali": "Schwarzenburg", "name": "Feuerwehrmagazin", "network": null, "stairs": null, "toilets_po": "seated", "wc_guide_i": "1518", "website": null, "wheelchair": null, "Cluster_ID": 0, "xyz": "1065_1326_11" }, "geometry": { "type": "Point", "coordinates": [ 7.341979, 46.82069 ] } },
{ "type": "Feature", "properties": { "id": "2842", "amenity": "toilets", "changing_t": null, "descriptio": null, "fee": null, "hand_rail": null, "municipali": "Heitenried", "name": "Heitenried", "network": null, "stairs": null, "toilets_po": "seated", "wc_guide_i": "2842", "website": null, "wheelchair": null, "Cluster_ID": 4, "xyz": "1065_1326_11" }, "geometry": { "type": "Point", "coordinates": [ 7.299986, 46.82708 ] } },
{ "type": "Feature", "properties": { "id": "3559", "amenity": "toilets", "changing_t": null, "descriptio": null, "fee": null, "hand_rail": null, "municipali": "Schmitten", "name": null, "network": null, "stairs": null, "toilets_po": "seated", "wc_guide_i": "3559", "website": null, "wheelchair": null, "Cluster_ID": 4, "xyz": "1065_1326_11" }, "geometry": { "type": "Point", "coordinates": [ 7.249324, 46.85664 ] } },
{ "type": "Feature", "properties": { "id": "3685", "amenity": "toilets", "changing_t": null, "descriptio": null, "fee": null, "hand_rail": null, "municipali": "Schmitten", "name": null, "network": null, "stairs": null, "toilets_po": "seated", "wc_guide_i": "3685", "website": null, "wheelchair": null, "Cluster_ID": 4, "xyz": "1065_1326_11" }, "geometry": { "type": "Point", "coordinates": [ 7.248937, 46.855507 ] } },
{ "type": "Feature", "properties": { "id": "18287", "amenity": "toilets", "changing_t": null, "descriptio": null, "fee": null, "hand_rail": null, "municipali": "Wï¿½nnewil-Flamatt", "name": "Gemeindehaus", "network": null, "stairs": null, "toilets_po": "seated", "wc_guide_i": "18287", "website": null, "wheelchair": null, "Cluster_ID": 4, "xyz": "1065_1326_11" }, "geometry": { "type": "Point", "coordinates": [ 7.27623, 46.874634 ] } },
{ "type": "Feature", "properties": { "id": "18565", "amenity": "toilets", "changing_t": null, "descriptio": null, "fee": null, "hand_rail": null, "municipali": "Sankt Antoni", "name": "Gemeindehaus\/ Bushaltestelle", "network": null, "stairs": null, "toilets_po": "seated", "wc_guide_i": "18565", "website": null, "wheelchair": null, "Cluster_ID": 4, "xyz": "1065_1326_11" }, "geometry": { "type": "Point", "coordinates": [ 7.260542, 46.822224 ] } },
{ "type": "Feature", "properties": { "id": "18753", "amenity": "toilets", "changing_t": null, "descriptio": null, "fee": null, "hand_rail": null, "municipali": "Sankt Antoni", "name": "Nette Toilette", "network": null, "stairs": null, "toilets_po": "seated", "wc_guide_i": "18753", "website": null, "wheelchair": null, "Cluster_ID": 4, "xyz": "1065_1326_11" }, "geometry": { "type": "Point", "coordinates": [ 7.260491, 46.821815 ] } },
{ "type": "Feature", "properties": { "id": "18992", "amenity": "toilets", "changing_t": null, "descriptio": null, "fee": null, "hand_rail": null, "municipali": "Neuenegg", "name": "Gemeinde", "network": null, "stairs": null, "toilets_po": "seated", "wc_guide_i": "18992", "website": null, "wheelchair": null, "Cluster_ID": 4, "xyz": "1065_1326_11" }, "geometry": { "type": "Point", "coordinates": [ 7.302041, 46.893448 ] } },
{ "type": "Feature", "properties": { "id": "20681", "amenity": "toilets", "changing_t": null, "descriptio": null, "fee": null, "hand_rail": null, "municipali": "Neuenegg", "name": null, "network": null, "stairs": null, "toilets_po": "seated", "wc_guide_i": "20681", "website": null, "wheelchair": null, "Cluster_ID": 4, "xyz": "1065_1326_11" }, "geometry": { "type": "Point", "coordinates": [ 7.3025, 46.894585 ] } }
]
}
