{
"type": "FeatureCollection",
"name": "xyz_1066_1324_11",
"crs": { "type": "name", "properties": { "name": "urn:ogc:def:crs:OGC:1.3:CRS84" } },
"features": [
{ "type": "Feature", "properties": { "id": "3866", "amenity": "toilets", "changing_t": null, "descriptio": null, "fee": null, "hand_rail": null, "municipali": "Erlenbach im Simmental", "name": "Bahnhof Erlenbach", "network": null, "stairs": null, "toilets_po": "seated", "wc_guide_i": "3866", "website": null, "wheelchair": null, "Cluster_ID": 7, "xyz": "1066_1324_11" }, "geometry": { "type": "Point", "coordinates": [ 7.555531, 46.659225 ] } },
{ "type": "Feature", "properties": { "id": "16793", "amenity": "toilets", "changing_t": null, "descriptio": "2 Treppenstufen vor der Toilette", "fee": null, "hand_rail": null, "municipali": "Boltigen", "name": "Bahnhof Boltigen", "network": null, "stairs": null, "toilets_po": "seated", "wc_guide_i": "16793", "website": null, "wheelchair": null, "Cluster_ID": 30, "xyz": "1066_1324_11" }, "geometry": { "type": "Point", "coordinates": [ 7.390042, 46.627312 ] } },
{ "type": "Feature", "properties": { "id": "16794", "amenity": "toilets", "changing_t": null, "descriptio": "Toitoi", "fee": null, "hand_rail": null, "municipali": "Boltigen", "name": "Grillplatz", "network": null, "stairs": null, "toilets_po": "seated", "wc_guide_i": "16794", "website": null, "wheelchair": null, "Cluster_ID": 30, "xyz": "1066_1324_11" }, "geometry": { "type": "Point", "coordinates": [ 7.382874, 46.618427 ] } },
{ "type": "Feature", "properties": { "id": "18436", "amenity": "toilets", "changing_t": null, "descriptio": null, "fee": null, "hand_rail": null, "municipali": "Dï¿½rstetten", "name": "Bahnhof", "network": null, "stairs": null, "toilets_po": "seated", "wc_guide_i": "18436", "website": null, "wheelchair": null, "Cluster_ID": 30, "xyz": "1066_1324_11" }, "geometry": { "type": "Point", "coordinates": [ 7.495286, 46.658131 ] } },
{ "type": "Feature", "properties": { "id": "20872", "amenity": "toilets", "changing_t": null, "descriptio": null, "fee": null, "hand_rail": null, "municipali": "Erlenbach i. S.", "name": "Gemeindehaus", "network": null, "stairs": null, "toilets_po": "seated", "wc_guide_i": "20872", "website": null, "wheelchair": null, "Cluster_ID": 7, "xyz": "1066_1324_11" }, "geometry": { "type": "Point", "coordinates": [ 7.552449, 46.660892 ] } },
{ "type": "Feature", "properties": { "id": "20873", "amenity": "toilets", "changing_t": null, "descriptio": "Bei Autowaschanlage", "fee": null, "hand_rail": null, "municipali": "Erlenbach i. S.", "name": "Markthalle", "network": null, "stairs": null, "toilets_po": "seated", "wc_guide_i": "20873", "website": null, "wheelchair": null, "Cluster_ID": 7, "xyz": "1066_1324_11" }, "geometry": { "type": "Point", "coordinates": [ 7.555009, 46.661098 ] } }
]
}
